{"zones": [{"locality": "Andheri", "city": "Mumbai", "lat": 19.1197, "lng": 72.8464, "score": 326, "total_incidents": 184, "label": "CRITICAL", "has_data": true}, {"locality": "Pen", "city": "Mumbai", "lat": 18.735, "lng": 73.095, "score": 250, "total_incidents": 132, "label": "CRITICAL", "has_data": true}, {"locality": "Kurla", "city": "Mumbai", "lat": 19.0728, "lng": 72.8826, "score": 223, "total_incidents": 132, "label": "CRITICAL", "has_data": true}, {"locality": "Bandra", "city": "Mumbai", "lat": 19.0596, "lng": 72.8295, "score": 219, "total_incidents": 100, "label": "CRITICAL", "has_data": true}, {"locality": "Thane", "city": "Mumbai", "lat": 19.2183, "lng": 72.9781, "score": 143, "total_incidents": 90, "label": "CRITICAL", "has_data": true}, {"locality": "Goregaon", "city": "Mumbai", "lat": 19.1663, "lng": 72.8526, "score": 99, "total_incidents": 52, "label": "CRITICAL", "has_data": true}, {"locality": "Khar", "city": "Mumbai", "lat": 19.0697, "lng": 72.8345, "score": 97, "total_incidents": 45, "label": "CRITICAL", "has_data": true}, {"locality": "Mira Road", "city": "Mumbai", "lat": 19.2813, "lng": 72.8748, "score": 96, "total_incidents": 42, "label": "CRITICAL", "has_data": true}, {"locality": "Malad", "city": "Mumbai", "lat": 19.1868, "lng": 72.8487, "score": 75, "total_incidents": 50, "label": "CRITICAL", "has_data": true}, {"locality": "Vasai", "city": "Mumbai", "lat": 19.3647, "lng": 72.8376, "score": 56, "total_incidents": 22, "label": "CRITICAL", "has_data": true}, {"locality": "Virar", "city": "Mumbai", "lat": 19.4561, "lng": 72.8111, "score": 51, "total_incidents": 22, "label": "CRITICAL", "has_data": true}, {"locality": "Kandivali", "city": "Mumbai", "lat": 19.2055, "lng": 72.8519, "score": 45, "total_incidents": 21, "label": "CRITICAL", "has_data": true}, {"locality": "Ghatkopar", "city": "Mumbai", "lat": 19.0864, "lng": 72.9081, "score": 42, "total_incidents": 25, "label": "CRITICAL", "has_data": true}, {"locality": "Kharghar", "city": "Mumbai", "lat": 19.0472, "lng": 73.0697, "score": 39, "total_incidents": 17, "label": "CRITICAL", "has_data": true}, {"locality": "Juhu", "city": "Mumbai", "lat": 19.1075, "lng": 72.8263, "score": 34, "total_incidents": 21, "label": "CRITICAL", "has_data": true}, {"locality": "Fort", "city": "Mumbai", "lat": 18.934, "lng": 72.8356, "score": 31, "total_incidents": 17, "label": "CRITICAL", "has_data": true}, {"locality": "Borivali", "city": "Mumbai", "lat": 19.2307, "lng": 72.8567, "score": 29, "total_incidents": 25, "label": "CRITICAL", "has_data": true}, {"locality": "Dahisar", "city": "Mumbai", "lat": 19.2517, "lng": 72.8567, "score": 28, "total_incidents": 19, "label": "CRITICAL", "has_data": true}, {"locality": "Palghar", "city": "Mumbai", "lat": 19.6967, "lng": 72.765, "score": 27, "total_incidents": 12, "label": "CRITICAL", "has_data": true}, {"locality": "Panvel", "city": "Mumbai", "lat": 18.9894, "lng": 73.1175, "score": 27, "total_incidents": 18, "label": "CRITICAL", "has_data": true}, {"locality": "Turbhe", "city": "Mumbai", "lat": 19.0817, "lng": 73.0183, "score": 27, "total_incidents": 11, "label": "CRITICAL", "has_data": true}, {"locality": "Mulund", "city": "Mumbai", "lat": 19.1752, "lng": 72.9469, "score": 26, "total_incidents": 12, "label": "CRITICAL", "has_data": true}, {"locality": "Uran", "city": "Mumbai", "lat": 18.887, "lng": 72.945, "score": 25, "total_incidents": 16, "label": "CRITICAL", "has_data": true}, {"locality": "Vile Parle", "city": "Mumbai", "lat": 19.099, "lng": 72.844, "score": 20, "total_incidents": 18, "label": "CRITICAL", "has_data": true}, {"locality": "Colaba", "city": "Mumbai", "lat": 18.9067, "lng": 72.8147, "score": 19, "total_incidents": 13, "label": "HIGH", "has_data": true}, {"locality": "Airoli", "city": "Mumbai", "lat": 19.155, "lng": 72.9983, "score": 16, "total_incidents": 8, "label": "HIGH", "has_data": true}, {"locality": "Kalyan", "city": "Mumbai", "lat": 19.2437, "lng": 73.1355, "score": 16, "total_incidents": 13, "label": "HIGH", "has_data": true}, {"locality": "Bhandup", "city": "Mumbai", "lat": 19.147, "lng": 72.9419, "score": 15, "total_incidents": 9, "label": "HIGH", "has_data": true}, {"locality": "Wadala", "city": "Mumbai", "lat": 19.0197, "lng": 72.8617, "score": 15, "total_incidents": 12, "label": "HIGH", "has_data": true}, {"locality": "Cheeta Camp", "city": "Mumbai", "lat": 19.0467, "lng": 72.9267, "score": 14, "total_incidents": 5, "label": "HIGH", "has_data": true}, {"locality": "Govandi", "city": "Mumbai", "lat": 19.048, "lng": 72.9285, "score": 14, "total_incidents": 9, "label": "HIGH", "has_data": true}, {"locality": "Dombivli", "city": "Mumbai", "lat": 19.2183, "lng": 73.0833, "score": 13, "total_incidents": 12, "label": "HIGH", "has_data": true}, {"locality": "Mankhurd", "city": "Mumbai", "lat": 19.0482, "lng": 72.9317, "score": 12, "total_incidents": 7, "label": "HIGH", "has_data": true}, {"locality": "Sewri", "city": "Mumbai", "lat": 18.9833, "lng": 72.8617, "score": 10, "total_incidents": 5, "label": "MODERATE", "has_data": true}, {"locality": "Badlapur", "city": "Mumbai", "lat": 19.1667, "lng": 73.25, "score": 9, "total_incidents": 5, "label": "MODERATE", "has_data": true}, {"locality": "Jogeshwari", "city": "Mumbai", "lat": 19.1397, "lng": 72.8493, "score": 9, "total_incidents": 5, "label": "MODERATE", "has_data": true}, {"locality": "Nerul", "city": "Mumbai", "lat": 19.0333, "lng": 73.0167, "score": 9, "total_incidents": 3, "label": "MODERATE", "has_data": true}, {"locality": "Parel", "city": "Mumbai", "lat": 19.0048, "lng": 72.8397, "score": 8, "total_incidents": 6, "label": "MODERATE", "has_data": true}, {"locality": "Dadar", "city": "Mumbai", "lat": 19.0178, "lng": 72.8478, "score": 7, "total_incidents": 6, "label": "MODERATE", "has_data": true}, {"locality": "Koparkhairane", "city": "Mumbai", "lat": 19.105, "lng": 73.0067, "score": 7, "total_incidents": 7, "label": "MODERATE", "has_data": true}, {"locality": "Kamathipura", "city": "Mumbai", "lat": 18.9638, "lng": 72.821, "score": 6, "total_incidents": 4, "label": "MODERATE", "has_data": true}, {"locality": "Neral", "city": "Mumbai", "lat": 18.862, "lng": 73.278, "score": 6, "total_incidents": 2, "label": "MODERATE", "has_data": true}, {"locality": "Belapur", "city": "Mumbai", "lat": 19.0217, "lng": 73.04, "score": 5, "total_incidents": 5, "label": "SAFE", "has_data": true}, {"locality": "Chembur", "city": "Mumbai", "lat": 19.0522, "lng": 72.8997, "score": 5, "total_incidents": 3, "label": "SAFE", "has_data": true}, {"locality": "Ulhasnagar", "city": "Mumbai", "lat": 19.2167, "lng": 73.15, "score": 5, "total_incidents": 3, "label": "SAFE", "has_data": true}, {"locality": "Vashi", "city": "Mumbai", "lat": 19.0771, "lng": 73.007, "score": 5, "total_incidents": 5, "label": "SAFE", "has_data": true}, {"locality": "Vikhroli", "city": "Mumbai", "lat": 19.1054, "lng": 72.9252, "score": 5, "total_incidents": 5, "label": "SAFE", "has_data": true}, {"locality": "Nalasopara", "city": "Mumbai", "lat": 19.42, "lng": 72.8, "score": 4, "total_incidents": 4, "label": "SAFE", "has_data": true}, {"locality": "Powai", "city": "Mumbai", "lat": 19.1197, "lng": 72.9063, "score": 4, "total_incidents": 2, "label": "SAFE", "has_data": true}, {"locality": "Goregaon West", "city": "Mumbai", "lat": 19.1663, "lng": 72.84, "score": 3, "total_incidents": 3, "label": "SAFE", "has_data": true}, {"locality": "Lower Parel", "city": "Mumbai", "lat": 18.9939, "lng": 72.8258, "score": 3, "total_incidents": 3, "label": "SAFE", "has_data": true}, {"locality": "Santacruz", "city": "Mumbai", "lat": 19.083, "lng": 72.8397, "score": 3, "total_incidents": 2, "label": "SAFE", "has_data": true}, {"locality": "Goregaon East", "city": "Mumbai", "lat": 19.1663, "lng": 72.87, "score": 2, "total_incidents": 1, "label": "SAFE", "has_data": true}, {"locality": "Kanjurmarg", "city": "Mumbai", "lat": 19.1317, "lng": 72.9415, "score": 2, "total_incidents": 1, "label": "SAFE", "has_data": true}, {"locality": "Worli", "city": "Mumbai", "lat": 19.0048, "lng": 72.8172, "score": 2, "total_incidents": 2, "label": "SAFE", "has_data": true}, {"locality": "Ambernath", "city": "Mumbai", "lat": 19.2, "lng": 73.1833, "score": 1, "total_incidents": 1, "label": "SAFE", "has_data": true}, {"locality": "Dharavi", "city": "Mumbai", "lat": 19.0445, "lng": 72.8586, "score": 1, "total_incidents": 1, "label": "SAFE", "has_data": true}], "no_data": [{"locality": "Trombay", "lat": 19.03, "lng": 72.95, "has_data": false}, {"locality": "Navi Mumbai", "lat": 19.033, "lng": 73.0297, "has_data": false}, {"locality": "Bhiwandi", "lat": 19.2967, "lng": 73.058, "has_data": false}, {"locality": "Nahur", "lat": 19.135, "lng": 72.935, "has_data": false}, {"locality": "Tilaknagar", "lat": 19.06, "lng": 72.91, "has_data": false}, {"locality": "Chunabhatti", "lat": 19.0433, "lng": 72.8817, "has_data": false}, {"locality": "GTB Nagar", "lat": 19.055, "lng": 72.92, "has_data": false}, {"locality": "Churchgate", "lat": 18.9322, "lng": 72.8264, "has_data": false}, {"locality": "Marine Lines", "lat": 18.9438, "lng": 72.8233, "has_data": false}, {"locality": "Mahalaxmi", "lat": 18.9833, "lng": 72.819, "has_data": false}, {"locality": "Ghansoli", "lat": 19.1217, "lng": 73.0083, "has_data": false}, {"locality": "Hiranandani", "lat": 19.1197, "lng": 72.9063, "has_data": false}, {"locality": "Chandivali", "lat": 19.1167, "lng": 72.9, "has_data": false}, {"locality": "Karjat", "lat": 18.915, "lng": 73.32, "has_data": false}, {"locality": "Khopoli", "lat": 18.787, "lng": 73.344, "has_data": false}, {"locality": "Alibag", "lat": 18.6414, "lng": 72.8722, "has_data": false}, {"locality": "Roha", "lat": 18.44, "lng": 73.1167, "has_data": false}, {"locality": "Nashik Road", "lat": 19.9975, "lng": 73.7898, "has_data": false}, {"locality": "Igatpuri", "lat": 19.694, "lng": 73.563, "has_data": false}, {"locality": "Mahad", "lat": 18.085, "lng": 73.416, "has_data": false}, {"locality": "Dronagiri", "lat": 18.93, "lng": 72.97, "has_data": false}, {"locality": "Nhava Sheva", "lat": 18.95, "lng": 72.95, "has_data": false}], "hotspots": [], "generated_at": "2026-06-09T20:36:26.633289", "city": "Mumbai"}